,Nom,Adresse,Numéro,Code Postal,Localité,telephone,gsm,Site internet,email,Longitude,Latitude
0,A la Pier'rare,rue de la Ferme,2,6900,Verdenne,+32(0)84 31 13 03,+32(0)498 31 46 55,http://chambreverdenne.skyrock.com,chemar@belgacom.net,5.3976291418076,50.235076826271
1,La Ferme de la Seigneurie,rue de la Commanderie,23,6900,Hargimont,+32(0)84 21 34 14,+32(0)475 23 94 74,http://www.fermedelaseigneurie.be,alain.merenne@skynet.be,5.3033548593521,50.184180779158
2,CH Maldague,Vieille Route de Liège,91,6900,Marche-en-Famenne,+32(0)484 07 10 13,+32(0)84 32 20 12,,evelynemaldague@yahoo.be,5.3441888093948,50.236909101112
3,A l'Ombre du Prunier,chemin des Bacs,2,6900,Roy,+32(0)495 54 98 61,+32(0)84 34 44 31,https://www.nosgitesenardenne.com,nosgitesenardenne@gmail.com,5.4069364070892,50.185486043762
4,ARDENNES WOODS,Rue de la Chapelle,1,6900,Hargimont,0494 29 16 15,,https://www.ardenneswoods.com/,knophil@msn.com,5.3106792,50.1852185
5,Ardenne B&B,rue des Rossignols,8,6900,Marche-en-Famenne,+32(0)472 83 12 38,,https://www.ardennebnb.com,ardennebnb@gmail.com,5.3711499443777,50.234430887241
6,Au Jardin Fleuri,avenue de la Toison d'Or,57,6900,Marche-en-Famenne,+32(0)84 31 23 50,+32(0)478 56 20 59,http://au-jardin-fleuri.blogspot.be,georgette.mathu@gmail.com,5.3423488140106,50.222382786851
